City_ID,City,Country,Date,Lat,Lng,Max Temp,Humidity,Cloudiness,Wind Speed,description,Rain Inches (last 3 hrs),Snow Inches (last 3 hrs)
0,Punta Arenas,CL,2020-05-12 21:59:33,-53.15,-70.92,41.0,65,53,13.87,broken clouds,0,0
1,Saint-Philippe,RE,2020-05-12 21:58:12,-21.36,55.77,68.0,68,84,3.36,broken clouds,0,0
2,Bethel,US,2020-05-12 21:59:33,41.37,-73.41,55.4,20,20,12.75,few clouds,0,0
3,Rikitea,PF,2020-05-12 21:59:34,-23.12,-134.97,74.37,67,0,3.13,clear sky,0,0
4,Jamestown,US,2020-05-12 21:56:31,42.1,-79.24,48.0,45,90,21.92,overcast clouds,0,0
5,Alice Springs,AU,2020-05-12 21:58:48,-23.7,133.88,41.0,38,0,4.7,clear sky,0,0
6,Vaini,TO,2020-05-12 21:59:34,-21.2,-175.2,77.0,78,20,6.93,few clouds,0,0
7,Pahrump,US,2020-05-12 21:59:34,36.21,-115.98,80.01,20,0,11.01,clear sky,0,0
8,Bluff,NZ,2020-05-12 21:59:34,-46.6,168.33,44.51,84,5,8.08,clear sky,0,0
9,Port Alfred,ZA,2020-05-12 21:59:34,-33.59,26.89,64.0,88,100,7.0,overcast clouds,0,0
10,Clonakilty,IE,2020-05-12 21:59:35,51.62,-8.87,46.4,65,20,3.36,few clouds,0,0
11,Hermanus,ZA,2020-05-12 21:59:35,-34.42,19.23,51.01,95,19,9.55,few clouds,0,0
12,Puerto Narino,CO,2020-05-12 21:59:35,-3.77,-70.38,78.8,94,75,2.24,broken clouds,0,0
13,Itaqui,BR,2020-05-12 21:59:35,-29.13,-56.55,67.57,97,100,9.1,light rain,0,0
14,Atuona,PF,2020-05-12 21:59:35,-9.8,-139.03,79.97,73,26,18.14,scattered clouds,0,0
15,Puerto Ayora,EC,2020-05-12 21:59:35,-0.74,-90.35,87.8,58,20,18.34,few clouds,0,0
16,Pasir Mas,MY,2020-05-12 21:59:35,6.05,102.14,82.4,83,20,3.36,few clouds,0,0
17,Pisco,PE,2020-05-12 21:59:36,-13.7,-76.22,73.4,64,10,16.11,clear sky,0,0
18,Mataura,NZ,2020-05-12 21:59:36,-46.19,168.86,43.74,79,52,1.86,broken clouds,0,0
19,Yellowknife,CA,2020-05-12 21:57:42,62.46,-114.35,42.8,60,20,23.04,few clouds,0,0
20,Barrow,US,2020-05-12 21:55:01,71.29,-156.79,24.8,73,1,27.51,clear sky,0,0
21,Kapaa,US,2020-05-12 21:59:36,22.08,-159.32,80.6,65,20,13.87,few clouds,0,0
22,Hithadhoo,MV,2020-05-12 21:59:37,-0.6,73.08,84.27,77,100,11.43,light rain,0,0
23,Coquimbo,CL,2020-05-12 21:59:37,-29.95,-71.34,59.0,67,20,3.36,few clouds,0,0
24,Omsukchan,RU,2020-05-12 21:59:37,62.53,155.8,31.33,96,79,7.09,broken clouds,0,0
25,Yining,CN,2020-05-12 21:59:37,29.04,114.56,60.4,72,100,1.43,overcast clouds,0,0
26,Marzuq,YE,2020-05-12 21:59:37,14.4,46.47,81.36,32,25,3.65,scattered clouds,0,0
27,Izyum,UA,2020-05-12 21:59:37,49.21,37.25,54.57,92,88,8.21,light rain,0,0
28,Albany,US,2020-05-12 21:55:11,42.6,-73.97,50.0,24,63,1.01,broken clouds,0,0
29,Dickinson,US,2020-05-12 21:59:24,29.46,-95.05,82.4,58,75,12.75,broken clouds,0,0
30,Nikolskoye,RU,2020-05-12 21:59:38,59.7,30.79,41.0,74,100,6.71,overcast clouds,0,0
31,Fort Nelson,CA,2020-05-12 21:59:38,58.81,-122.7,66.2,20,75,5.82,broken clouds,0,0
32,Esperance,AU,2020-05-12 21:59:38,-33.87,121.9,48.2,87,43,9.17,scattered clouds,0,0
33,Clyde River,CA,2020-05-12 21:58:11,70.47,-68.59,19.4,92,90,18.34,overcast clouds,0,0
34,Richards Bay,ZA,2020-05-12 21:59:39,-28.78,32.04,65.35,91,45,5.73,scattered clouds,0,0
35,West Odessa,US,2020-05-12 21:59:39,31.84,-102.5,89.6,30,1,9.17,clear sky,0,0
36,Lorengau,PG,2020-05-12 21:59:39,-2.02,147.27,79.2,86,100,6.8,light rain,0,0
37,Guiratinga,BR,2020-05-12 21:59:39,-16.35,-53.76,74.77,70,27,3.11,scattered clouds,0,0
38,Palana,RU,2020-05-12 21:59:39,59.12,159.97,30.56,100,65,2.42,broken clouds,0,0
39,Iqaluit,CA,2020-05-12 21:59:40,63.75,-68.51,28.4,79,90,25.28,light snow,0,0
40,Cidreira,BR,2020-05-12 21:54:58,-30.18,-50.21,66.69,97,100,8.59,light rain,0,0
41,Shimonoseki,JP,2020-05-12 21:59:40,33.95,130.95,62.6,63,20,13.87,few clouds,0,0
42,Kajaani,FI,2020-05-12 21:59:40,64.23,27.73,28.4,86,14,3.36,few clouds,0,0
43,Kraksaan,ID,2020-05-12 21:56:43,-7.76,113.4,78.13,77,28,6.11,scattered clouds,0,0
44,Longyearbyen,SJ,2020-05-12 21:58:53,78.22,15.64,23.0,92,90,13.87,snow,0,0
45,Gulu,UG,2020-05-12 21:59:41,2.77,32.3,65.84,94,100,2.06,light rain,0,0
46,Lavrentiya,RU,2020-05-12 21:59:41,65.58,-171.0,33.35,94,100,1.57,overcast clouds,0,0
47,Sola,VU,2020-05-12 21:59:41,-13.88,167.55,80.6,78,75,5.82,broken clouds,0,0
48,Namatanai,PG,2020-05-12 21:59:41,-3.67,152.43,78.49,86,100,5.39,light rain,0,0
49,Moroni,KM,2020-05-12 21:59:41,-11.7,43.26,79.27,76,32,9.04,scattered clouds,0,0
50,Butaritari,KI,2020-05-12 21:59:41,3.07,172.79,83.43,80,52,16.6,light rain,0,0
51,Kruisfontein,ZA,2020-05-12 21:58:51,-34.0,24.73,61.14,83,100,18.95,overcast clouds,0,0
52,Carnarvon,AU,2020-05-12 21:59:42,-24.87,113.63,70.07,36,0,10.45,clear sky,0,0
53,Pangnirtung,CA,2020-05-12 21:59:42,66.15,-65.71,41.0,60,75,20.8,broken clouds,0,0
54,Cape Town,ZA,2020-05-12 21:59:42,-33.93,18.42,59.0,72,20,8.05,few clouds,0,0
55,Jiangyou,CN,2020-05-12 21:59:42,31.77,104.72,62.29,52,100,2.8,overcast clouds,0,0
56,Busselton,AU,2020-05-12 21:59:42,-33.65,115.33,53.01,63,62,7.94,broken clouds,0,0
57,Tilichiki,RU,2020-05-12 21:59:42,60.47,166.1,31.75,99,66,4.54,broken clouds,0,0
58,Praya,CV,2020-05-12 21:55:49,14.92,-23.51,73.4,73,40,18.34,scattered clouds,0,0
59,Saldanha,ZA,2020-05-12 21:59:43,-33.01,17.94,55.4,82,46,3.36,scattered clouds,0,0
60,Tuatapere,NZ,2020-05-12 21:59:43,-46.13,167.68,43.83,63,0,4.56,clear sky,0,0
61,Margate,GB,2020-05-12 21:59:43,51.38,1.39,50.0,60,16,1.01,few clouds,0,0
62,Naze,JP,2020-05-12 21:59:43,28.37,129.48,69.8,68,20,9.17,few clouds,0,0
63,Avarua,CK,2020-05-12 21:59:43,-21.21,-159.78,80.6,88,45,5.82,scattered clouds,0,0
64,Yar-Sale,RU,2020-05-12 21:59:43,66.83,70.83,35.94,98,100,5.01,overcast clouds,0,0
65,Khatanga,RU,2020-05-12 21:59:43,71.97,102.5,13.64,96,21,6.42,few clouds,0,0
66,Povenets,RU,2020-05-12 21:59:44,62.85,34.83,36.41,80,98,6.04,overcast clouds,0,0
67,Hobart,AU,2020-05-12 21:58:27,-42.88,147.33,48.0,65,40,11.41,scattered clouds,0,0
68,Huntley,US,2020-05-12 21:59:44,42.17,-88.43,61.0,33,72,1.99,broken clouds,0,0
69,Geraldton,AU,2020-05-12 21:58:21,-28.77,114.6,62.6,48,14,14.99,few clouds,0,0
70,Ushuaia,AR,2020-05-12 21:59:35,-54.8,-68.3,41.0,88,40,35.57,scattered clouds,0,0
71,East London,ZA,2020-05-12 21:58:36,-33.02,27.91,68.79,75,100,11.5,overcast clouds,0,0
72,Mar Del Plata,AR,2020-05-12 21:59:44,-38.0,-57.56,57.0,71,100,9.17,overcast clouds,0,0
73,Minab,IR,2020-05-12 21:59:44,27.15,57.08,80.6,69,0,9.17,clear sky,0,0
74,Aykhal,RU,2020-05-12 21:59:45,66.0,111.5,21.2,85,90,11.18,light shower snow,0,0
75,Mount Gambier,AU,2020-05-12 21:59:45,-37.83,140.77,39.2,100,20,5.82,few clouds,0,0
76,Santa Engracia,ES,2020-05-12 21:59:45,41.94,-1.32,59.0,87,90,4.7,moderate rain,0,0
77,Fortuna,US,2020-05-12 21:59:45,40.6,-124.16,61.0,72,75,10.29,broken clouds,0,0
78,Mahebourg,MU,2020-05-12 21:59:45,-20.41,57.7,73.4,60,40,8.05,scattered clouds,0,0
79,Zhangjiakou,CN,2020-05-12 21:57:41,40.81,114.88,55.62,33,0,2.51,clear sky,0,0
80,Kenai,US,2020-05-12 21:59:45,60.55,-151.26,50.0,61,75,6.93,broken clouds,0,0
81,Teya,RU,2020-05-12 21:59:46,60.38,92.63,39.87,72,61,4.9,broken clouds,0,0
82,Carutapera,BR,2020-05-12 21:59:46,-1.2,-46.02,77.92,91,100,6.76,light rain,0,0
83,Torbay,CA,2020-05-12 21:59:46,47.67,-52.73,46.99,100,90,21.92,mist,0,0
84,Skjervoy,NO,2020-05-12 21:59:46,70.03,20.97,33.69,88,100,22.46,light snow,0,0
85,Mount Isa,AU,2020-05-12 21:59:46,-20.73,139.5,62.6,25,59,1.12,broken clouds,0,0
86,Upernavik,GL,2020-05-12 21:59:46,72.79,-56.15,38.21,77,44,0.94,scattered clouds,0,0
87,Maniitsoq,GL,2020-05-12 21:59:46,65.42,-52.9,38.32,94,100,9.31,overcast clouds,0,0
88,Klaebu,NO,2020-05-12 21:59:47,63.3,10.48,34.0,95,75,9.17,shower rain,0,0
89,Cap Malheureux,MU,2020-05-12 21:59:47,-19.98,57.61,72.0,70,42,5.01,scattered clouds,0,0
90,Glendive,US,2020-05-12 21:59:47,47.11,-104.71,41.0,93,90,18.34,light rain,0,0
91,Saskylakh,RU,2020-05-12 21:59:47,71.92,114.08,24.42,97,98,13.6,light snow,0,0
92,Ugoofaaru,MV,2020-05-12 21:59:47,5.67,73.0,84.85,72,43,4.79,scattered clouds,0,0
93,Timbiqui,CO,2020-05-12 21:59:47,2.77,-77.67,79.32,90,89,7.05,moderate rain,0,0
94,Bengkulu,ID,2020-05-12 21:59:47,-3.8,102.27,77.68,80,94,3.91,overcast clouds,0,0
95,Cabedelo,BR,2020-05-12 21:59:48,-6.98,-34.83,78.8,88,40,4.7,scattered clouds,0,0
96,Vila Franca Do Campo,PT,2020-05-12 21:59:48,37.72,-25.43,61.0,71,40,3.36,scattered clouds,0,0
97,Ginda,IN,2020-05-12 21:59:48,30.69,78.49,56.34,41,92,6.4,overcast clouds,0,0
98,Provideniya,RU,2020-05-12 21:59:48,64.38,-173.3,44.6,70,100,4.47,overcast clouds,0,0
99,The Valley,AI,2020-05-12 21:59:48,18.22,-63.06,84.2,66,20,12.75,few clouds,0,0
100,Hilo,US,2020-05-12 21:59:48,19.73,-155.09,82.4,61,75,5.82,broken clouds,0,0
101,Poya,NC,2020-05-12 21:59:48,-21.35,165.15,72.12,58,45,7.45,scattered clouds,0,0
102,Windhoek,NA,2020-05-12 21:58:27,-22.56,17.08,59.0,37,45,2.24,scattered clouds,0,0
103,Hambantota,LK,2020-05-12 21:58:46,6.12,81.12,79.48,78,100,5.17,overcast clouds,0,0
104,Bredasdorp,ZA,2020-05-12 21:59:49,-34.53,20.04,57.2,82,40,16.11,scattered clouds,0,0
105,Sao Felix Do Xingu,BR,2020-05-12 21:59:49,-6.64,-51.99,76.6,83,1,2.66,clear sky,0,0
106,San Cristobal,VE,2020-05-12 21:59:49,7.77,-72.22,91.4,52,40,12.75,haze,0,0
107,Shubarkuduk,KZ,2020-05-12 21:59:49,49.14,56.49,51.06,69,12,3.42,few clouds,0,0
108,Sillod,IN,2020-05-12 21:59:50,20.3,75.65,83.75,27,52,4.68,broken clouds,0,0
109,Presidencia Roque Saenz Pena,AR,2020-05-12 21:59:50,-26.79,-60.44,68.54,69,100,7.16,overcast clouds,0,0
110,Tuktoyaktuk,CA,2020-05-12 21:59:50,69.45,-133.04,19.4,79,40,24.16,scattered clouds,0,0
111,Pershotravneve,UA,2020-05-12 21:59:50,51.39,28.87,35.78,82,0,6.85,clear sky,0,0
112,Lebu,CL,2020-05-12 21:59:50,-37.62,-73.65,54.25,80,0,11.88,clear sky,0,0
113,Bambous Virieux,MU,2020-05-12 21:59:51,-20.34,57.76,73.4,60,40,8.05,scattered clouds,0,0
114,Qitaihe,CN,2020-05-12 21:59:51,45.8,130.85,44.89,67,30,8.77,scattered clouds,0,0
115,Oyem,GA,2020-05-12 21:59:51,1.6,11.58,68.94,98,100,1.86,light rain,0,0
116,Labrea,BR,2020-05-12 21:59:51,-7.26,-64.8,81.7,80,77,1.57,broken clouds,0,0
117,Belaya Gora,RU,2020-05-12 21:59:51,68.53,146.42,35.46,99,79,5.12,broken clouds,0,0
118,College,US,2020-05-12 21:59:51,64.86,-147.8,57.0,66,75,5.21,broken clouds,0,0
119,Kodiak,US,2020-05-12 21:59:51,57.79,-152.41,50.0,66,90,8.05,overcast clouds,0,0
120,Arraial Do Cabo,BR,2020-05-12 21:57:41,-22.97,-42.03,75.2,69,20,16.11,few clouds,0,0
121,Sao Joao Da Barra,BR,2020-05-12 21:59:52,-21.64,-41.05,75.2,73,0,9.17,clear sky,0,0
122,Cayenne,GF,2020-05-12 21:59:52,4.93,-52.33,77.0,100,75,4.7,broken clouds,0,0
123,Haslett,US,2020-05-12 21:58:38,42.75,-84.4,57.2,20,1,12.75,clear sky,0,0
124,Vanimo,PG,2020-05-12 21:59:52,-2.67,141.3,80.94,79,32,3.22,light rain,0,0
125,Celendin,PE,2020-05-12 21:59:52,-6.87,-78.15,64.18,64,22,3.89,light rain,0,0
126,Saint Anthony,US,2020-05-12 21:59:53,45.02,-93.22,60.01,17,1,4.7,clear sky,0,0
127,Mani,CO,2020-05-12 21:59:53,4.82,-72.29,83.98,81,75,3.47,light rain,0,0
128,Mendi,PG,2020-05-12 21:59:53,-6.18,143.65,60.37,89,65,0.27,broken clouds,0,0
129,Chokurdakh,RU,2020-05-12 21:59:53,70.63,147.92,33.64,100,75,6.31,broken clouds,0,0
130,Porto Velho,BR,2020-05-12 21:55:07,-8.76,-63.9,82.4,83,40,5.82,light rain,0,0
131,Del Pilar,PH,2020-05-12 21:59:53,15.03,120.7,80.6,83,40,2.24,scattered clouds,0,0
132,Moree,AU,2020-05-12 21:59:53,-29.47,149.85,50.0,81,90,8.7,overcast clouds,0,0
133,Tasiilaq,GL,2020-05-12 21:59:53,65.61,-37.64,35.6,64,6,17.22,clear sky,0,0
134,Los Llanos De Aridane,ES,2020-05-12 21:59:54,28.66,-17.92,68.0,68,84,3.36,broken clouds,0,0
135,Georgetown,MY,2020-05-12 21:57:33,5.41,100.34,78.8,94,20,10.42,few clouds,0,0
136,Jining,CN,2020-05-12 21:59:54,35.41,116.58,58.89,67,82,11.39,broken clouds,0,0
137,Ambanja,MG,2020-05-12 21:59:54,-13.68,48.45,75.06,86,83,0.58,broken clouds,0,0
138,Lata,PT,2020-05-12 21:59:55,40.16,-8.33,59.0,90,18,2.06,few clouds,0,0
139,San Patricio,MX,2020-05-12 21:59:55,19.22,-104.7,86.0,79,20,11.41,few clouds,0,0
140,Elizabeth City,US,2020-05-12 21:55:23,36.29,-76.25,66.0,31,20,9.17,few clouds,0,0
141,Victoria,HK,2020-05-12 21:59:55,22.29,114.16,80.01,78,33,6.29,light rain,0,0
142,Vao,NC,2020-05-12 21:59:55,-22.67,167.48,71.89,67,2,18.7,clear sky,0,0
143,Tautira,PF,2020-05-12 21:59:55,-17.73,-149.15,86.0,62,20,6.93,few clouds,0,0
144,Candido Mendes,BR,2020-05-12 21:59:55,-1.45,-45.72,76.66,95,100,3.85,light rain,0,0
145,Touros,BR,2020-05-12 21:59:56,-5.2,-35.46,80.6,83,20,9.17,few clouds,0,0
146,Alekseyevka,RU,2020-05-12 21:59:56,50.63,38.69,54.72,86,95,12.17,light rain,0,0
147,Narsaq,GL,2020-05-12 21:59:56,60.92,-46.05,53.6,32,100,17.22,light rain,0,0
148,Mantua,IT,2020-05-12 21:59:56,45.17,10.78,57.0,78,76,8.99,broken clouds,0,0
149,Radhanpur,IN,2020-05-12 21:59:56,23.83,71.6,81.73,75,0,8.72,clear sky,0,0
150,Qaanaaq,GL,2020-05-12 21:59:57,77.48,-69.36,31.95,89,33,1.48,scattered clouds,0,0
151,Ndele,CF,2020-05-12 21:59:57,8.41,20.65,78.4,64,41,3.15,scattered clouds,0,0
152,Jiamusi,CN,2020-05-12 21:59:57,46.83,130.35,47.37,54,0,12.46,clear sky,0,0
153,Dikson,RU,2020-05-12 21:59:57,73.51,80.55,19.2,95,0,5.35,clear sky,0,0
154,Tuy Hoa,VN,2020-05-12 21:59:57,13.08,109.3,75.61,88,40,4.05,scattered clouds,0,0
155,Quatre Cocos,MU,2020-05-12 21:59:57,-20.21,57.76,73.4,60,40,8.05,scattered clouds,0,0
156,Waitati,NZ,2020-05-12 21:59:57,-45.75,170.57,52.0,75,100,5.01,overcast clouds,0,0
157,Thompson,CA,2020-05-12 21:59:57,55.74,-97.86,51.8,20,20,14.99,few clouds,0,0
158,Sitka,US,2020-05-12 21:58:51,57.05,-135.33,57.2,67,1,6.93,clear sky,0,0
159,Chadan,RU,2020-05-12 21:59:58,51.28,91.58,53.74,71,96,0.36,overcast clouds,0,0
160,Adjumani,UG,2020-05-12 21:59:58,3.38,31.79,68.7,92,100,0.31,light rain,0,0
161,Suntar,RU,2020-05-12 21:59:58,62.14,117.63,30.7,89,95,6.08,overcast clouds,0,0
162,Kaitangata,NZ,2020-05-12 21:59:58,-46.28,169.85,52.0,80,95,2.82,overcast clouds,0,0
163,Hervey Bay,AU,2020-05-12 21:59:58,-25.3,152.85,63.0,87,52,5.99,broken clouds,0,0
164,Chicama,PE,2020-05-12 21:59:58,-7.84,-79.15,74.64,68,29,9.04,scattered clouds,0,0
165,Faya,SA,2020-05-12 21:59:59,18.39,42.45,71.6,73,0,1.23,clear sky,0,0
166,Airai,TL,2020-05-12 21:59:59,-8.93,125.41,56.82,91,75,3.58,broken clouds,0,0
167,Dukhovnitskoye,RU,2020-05-12 21:59:59,52.48,48.21,54.21,77,2,13.2,clear sky,0,0
168,Finschhafen,PG,2020-05-12 21:59:59,-6.6,147.87,79.0,83,100,5.1,moderate rain,0,0
169,Colares,PT,2020-05-12 21:59:59,38.8,-9.45,61.0,87,20,3.36,few clouds,0,0
170,Tarakan,ID,2020-05-12 21:55:05,3.3,117.63,78.75,86,41,5.48,scattered clouds,0,0
171,Sept-Iles,CA,2020-05-12 21:59:59,50.2,-66.38,42.01,93,90,6.93,light rain,0,0
172,Lujan,AR,2020-05-12 22:00:00,-34.57,-59.1,59.0,60,0,5.84,clear sky,0,0
173,Valparaiso,CL,2020-05-12 22:00:00,-33.04,-71.63,57.2,62,98,4.7,overcast clouds,0,0
174,Palmas De Monte Alto,BR,2020-05-12 22:00:00,-14.27,-43.16,72.27,70,18,6.02,few clouds,0,0
175,Yerbogachen,RU,2020-05-12 22:00:00,61.28,108.01,29.59,91,65,8.75,broken clouds,0,0
176,Talnakh,RU,2020-05-12 21:58:20,69.49,88.4,28.4,79,56,11.18,broken clouds,0,0
177,Bonavista,CA,2020-05-12 22:00:01,48.65,-53.11,38.34,97,100,30.38,light rain,0,0
178,Palmer,US,2020-05-12 21:58:08,42.16,-72.33,53.6,23,20,24.16,few clouds,0,0
179,Buchanan,LR,2020-05-12 22:00:01,5.88,-10.05,80.37,84,98,6.62,overcast clouds,0,0
180,Gamboma,CG,2020-05-12 22:00:01,-1.88,15.86,71.85,94,60,0.49,broken clouds,0,0
181,Trapani,IT,2020-05-12 22:00:01,37.83,12.67,69.01,68,6,2.24,clear sky,0,0
182,Ponta Do Sol,PT,2020-05-12 21:58:29,32.67,-17.1,68.0,49,20,8.05,few clouds,0,0
183,Adrar,MR,2020-05-12 22:00:02,20.5,-10.07,84.97,16,0,9.17,clear sky,0,0
184,Borovskoy,KZ,2020-05-12 22:00:03,53.8,64.15,59.86,83,99,3.58,overcast clouds,0,0
185,Russell,US,2020-05-12 22:00:03,32.35,-85.2,78.8,29,1,2.59,clear sky,0,0
186,Tiksi,RU,2020-05-12 22:00:04,71.69,128.87,28.8,98,94,4.07,overcast clouds,0,0
187,Biak,ID,2020-05-12 22:00:04,-0.91,122.88,78.78,77,76,5.35,broken clouds,0,0
188,Benguela,AO,2020-05-12 22:00:05,-12.58,13.41,77.68,77,73,3.33,broken clouds,0,0
189,Port Blair,IN,2020-05-12 22:00:01,11.67,92.75,83.44,78,92,11.16,light rain,0,0
190,Faanui,PF,2020-05-12 22:00:05,-16.48,-151.75,81.54,74,75,11.27,broken clouds,0,0
191,La Ronge,CA,2020-05-12 22:00:05,55.1,-105.28,55.4,19,20,9.17,few clouds,0,0
192,Axim,GH,2020-05-12 22:00:06,4.87,-2.24,79.99,84,0,6.42,clear sky,0,0
193,Port Hueneme,US,2020-05-12 22:00:06,34.15,-119.2,69.01,82,90,10.29,overcast clouds,0,0
194,Hushitai,CN,2020-05-12 22:00:06,41.93,123.51,50.0,76,2,2.24,clear sky,0,0
195,Beringovskiy,RU,2020-05-12 22:00:07,63.05,179.32,33.06,96,99,6.49,overcast clouds,0,0
196,Coolum Beach,AU,2020-05-12 22:00:07,-26.53,153.1,57.99,95,71,7.47,broken clouds,0,0
197,Ribeira Grande,PT,2020-05-12 22:00:07,38.52,-28.7,59.97,70,56,25.14,broken clouds,0,0
198,Cherskiy,RU,2020-05-12 22:00:07,68.75,161.3,40.44,69,57,7.34,broken clouds,0,0
199,Ballina,AU,2020-05-12 22:00:08,-28.87,153.57,57.0,93,40,5.08,scattered clouds,0,0
200,Cullera,ES,2020-05-12 22:00:08,39.17,-0.25,63.0,89,59,10.8,light rain,0,0
201,Basoko,CD,2020-05-12 22:00:08,1.24,23.62,73.85,91,27,3.44,scattered clouds,0,0
202,Sarangani,PH,2020-05-12 22:00:08,5.4,125.46,83.89,79,76,8.79,broken clouds,0,0
203,Kudahuvadhoo,MV,2020-05-12 22:00:08,2.67,72.89,84.56,74,43,6.87,scattered clouds,0,0
204,Olafsvik,IS,2020-05-12 22:00:09,64.89,-23.71,38.93,80,77,10.33,broken clouds,0,0
205,Urbana,US,2020-05-12 22:00:09,40.11,-88.21,62.01,29,20,6.93,few clouds,0,0
206,Priladozhskiy,RU,2020-05-12 22:00:09,59.85,31.48,41.0,39,100,9.69,overcast clouds,0,0
207,Palauig,PH,2020-05-12 22:00:09,15.44,119.9,83.14,70,11,3.51,few clouds,0,0
208,Antofagasta,CL,2020-05-12 21:57:57,-23.65,-70.4,62.6,72,20,16.11,few clouds,0,0
209,Ullapool,GB,2020-05-12 22:00:09,57.9,-5.16,35.01,74,89,3.58,overcast clouds,0,0
210,Preston,GB,2020-05-12 21:56:59,53.77,-2.72,46.0,83,15,6.69,few clouds,0,0
211,Northam,GB,2020-05-12 22:00:10,51.03,-4.22,48.0,79,47,1.99,scattered clouds,0,0
212,Ozernovskiy,RU,2020-05-12 22:00:10,51.5,156.52,41.43,68,0,5.75,clear sky,0,0
213,Beloha,MG,2020-05-12 22:00:10,-25.17,45.05,63.91,81,12,2.84,few clouds,0,0
214,Port Elizabeth,ZA,2020-05-12 21:57:49,-33.92,25.57,62.6,88,99,20.8,light rain,0,0
215,Ilulissat,GL,2020-05-12 21:57:51,69.22,-51.1,44.6,69,74,9.17,broken clouds,0,0
216,Derzhavinsk,KZ,2020-05-12 22:00:10,51.1,66.32,62.17,83,100,2.53,light rain,0,0
217,Calama,CL,2020-05-12 22:00:10,-22.47,-68.93,68.0,18,0,25.28,clear sky,0,0
218,Tula,RU,2020-05-12 21:59:53,54.2,37.61,51.01,80,99,17.94,overcast clouds,0,0
219,Mattru,SL,2020-05-12 22:00:11,7.62,-11.83,77.07,93,100,4.68,moderate rain,0,0
220,Kulhudhuffushi,MV,2020-05-12 22:00:11,6.62,73.07,84.9,75,89,5.26,light rain,0,0
221,Gat,IL,2020-05-12 21:56:45,31.61,34.76,71.01,64,0,7.56,clear sky,0,0
222,Storsteinnes,NO,2020-05-12 22:00:11,69.24,19.23,32.0,86,98,21.92,light snow,0,0
223,Gamba,GA,2020-05-12 22:00:12,-2.65,10.0,78.58,90,100,3.24,moderate rain,0,0
224,Port-Gentil,GA,2020-05-12 22:00:12,-0.72,8.78,82.4,88,40,4.7,scattered clouds,0,0
225,Marystown,CA,2020-05-12 22:00:12,47.17,-55.15,40.71,98,100,11.56,light rain,0,0
226,Paamiut,GL,2020-05-12 21:58:50,61.99,-49.67,40.3,91,100,9.64,light rain,0,0
227,Sibolga,ID,2020-05-12 22:00:12,1.74,98.78,77.56,78,100,3.56,overcast clouds,0,0
228,Zhurivka,UA,2020-05-12 22:00:13,50.5,31.78,41.0,65,75,13.42,broken clouds,0,0
229,Usab,PH,2020-05-12 22:00:14,12.33,123.58,82.06,77,42,2.75,scattered clouds,0,0
230,Upata,VE,2020-05-12 22:00:14,8.01,-62.4,79.0,87,86,1.99,light rain,0,0
231,Comodoro Rivadavia,AR,2020-05-12 22:00:01,-45.87,-67.5,50.0,53,20,8.05,few clouds,0,0
232,Srednekolymsk,RU,2020-05-12 22:00:14,67.45,153.68,41.97,67,0,5.75,clear sky,0,0
233,Puerto Maldonado,PE,2020-05-12 22:00:14,-12.6,-69.18,83.26,68,77,0.96,broken clouds,0,0
234,Norman Wells,CA,2020-05-12 21:58:32,65.28,-126.83,41.0,87,75,9.17,broken clouds,0,0
235,Ngunguru,NZ,2020-05-12 22:00:14,-35.62,174.5,62.01,85,76,8.01,light rain,0,0
236,Qaqortoq,GL,2020-05-12 22:00:15,60.72,-46.03,53.6,32,100,17.22,light rain,0,0
237,Ahipara,NZ,2020-05-12 21:57:25,-35.17,173.17,62.92,70,95,14.67,overcast clouds,0,0
238,Haines Junction,CA,2020-05-12 22:00:15,60.75,-137.51,70.2,25,10,1.72,clear sky,0,0
239,Kukushtan,RU,2020-05-12 22:00:15,57.65,56.5,55.4,76,90,13.42,overcast clouds,0,0
240,Hasaki,JP,2020-05-12 21:58:31,35.73,140.83,69.01,88,20,6.93,few clouds,0,0
241,Cabo San Lucas,MX,2020-05-12 22:00:15,22.89,-109.91,89.6,18,5,11.41,clear sky,0,0
242,Nanortalik,GL,2020-05-12 22:00:16,60.14,-45.24,43.97,66,100,11.97,overcast clouds,0,0
243,Emerald,AU,2020-05-12 22:00:16,-23.53,148.17,57.99,71,13,6.93,few clouds,0,0
244,Kamenka,RU,2020-05-12 21:58:25,51.32,42.77,63.0,56,100,3.0,overcast clouds,0,0
245,Esqueda,MX,2020-05-12 21:58:10,30.72,-109.58,83.07,15,0,14.03,clear sky,0,0
246,Astaneh-Ye Ashrafiyeh,IR,2020-05-12 22:00:16,37.26,49.94,57.92,77,0,3.94,clear sky,0,0
247,Blackwater,AU,2020-05-12 22:00:16,-23.58,148.88,63.41,71,3,7.45,clear sky,0,0
248,Bordighera,IT,2020-05-12 22:00:16,43.78,7.66,62.6,82,50,9.17,scattered clouds,0,0
249,Warrnambool,AU,2020-05-12 21:58:02,-38.38,142.48,45.0,96,34,10.31,scattered clouds,0,0
250,Puerto Colombia,CO,2020-05-12 22:00:17,10.99,-74.95,91.4,63,40,4.7,scattered clouds,0,0
251,Sistranda,NO,2020-05-12 22:00:17,63.73,8.83,35.6,74,20,10.29,shower rain,0,0
252,Krasnoselkup,RU,2020-05-12 22:00:17,65.7,82.47,35.87,95,100,10.85,moderate rain,0,0
253,Krapivinskiy,RU,2020-05-12 22:00:17,55.0,86.81,57.2,71,0,2.24,clear sky,0,0
254,San Carlos,VE,2020-05-12 22:00:18,9.66,-68.58,92.3,41,90,1.9,overcast clouds,0,0
255,Khuzdar,PK,2020-05-12 22:00:18,27.74,66.64,72.93,52,5,0.63,clear sky,0,0
256,Pevek,RU,2020-05-12 21:58:36,69.7,170.31,33.19,92,99,1.36,overcast clouds,0,0
257,Caravelas,BR,2020-05-12 22:00:18,-17.71,-39.25,73.62,81,3,5.06,clear sky,0,0
258,Rawson,AR,2020-05-12 22:00:18,-43.3,-65.1,51.13,69,100,19.46,overcast clouds,0,0
259,Camana,PE,2020-05-12 22:00:18,-16.62,-72.71,67.24,76,16,7.52,few clouds,0,0
260,Rodrigues Alves,BR,2020-05-12 22:00:18,-7.74,-72.65,89.6,66,20,1.12,few clouds,0,0
261,Colwyn Bay,GB,2020-05-12 22:00:19,53.29,-3.73,48.99,74,14,5.01,few clouds,0,0
262,Opuwo,NA,2020-05-12 22:00:19,-18.06,13.84,64.76,47,36,2.98,scattered clouds,0,0
263,Hinton,CA,2020-05-12 22:00:19,53.4,-117.59,53.78,38,21,6.11,few clouds,0,0
264,San Quintin,MX,2020-05-12 22:00:19,30.48,-115.95,69.87,51,0,18.41,clear sky,0,0
265,Tongling,CN,2020-05-12 22:00:19,30.95,117.78,63.88,62,99,2.98,overcast clouds,0,0
266,Moen,NO,2020-05-12 22:00:19,69.13,18.61,30.2,86,99,21.92,snow,0,0
267,Shingu,JP,2020-05-12 22:00:20,33.73,135.98,64.49,56,0,5.88,clear sky,0,0
268,Suamico,US,2020-05-12 22:00:20,44.63,-88.04,57.0,19,1,6.93,clear sky,0,0
269,Santa Cruz,BO,2020-05-12 22:00:20,-17.8,-63.17,78.8,78,75,12.75,broken clouds,0,0
270,Portobelo,PA,2020-05-12 22:00:20,9.55,-79.65,91.4,66,40,9.17,scattered clouds,0,0
271,Requena,ES,2020-05-12 22:00:20,39.49,-1.1,51.01,99,100,6.53,light rain,0,0
272,Dharchula,IN,2020-05-12 22:00:20,29.85,80.53,58.75,54,93,5.19,overcast clouds,0,0
273,Nouakchott,MR,2020-05-12 21:57:44,18.09,-15.98,73.4,73,0,18.34,clear sky,0,0
274,Lesnoy,RU,2020-05-12 22:00:21,57.62,63.08,59.29,56,69,3.36,broken clouds,0,0
275,Celestun,MX,2020-05-12 22:00:21,20.87,-90.4,83.37,70,43,17.81,scattered clouds,0,0
276,Rajanpur,PK,2020-05-12 21:56:46,29.1,70.33,82.85,51,96,13.6,overcast clouds,0,0
277,Straumen,NO,2020-05-12 22:00:21,63.87,11.3,36.0,89,75,9.17,shower rain,0,0
278,Ketchikan,US,2020-05-12 22:00:21,55.34,-131.65,64.4,34,1,13.87,clear sky,0,0
279,Mnogovershinnyy,RU,2020-05-12 22:00:22,53.94,139.92,42.4,85,100,2.64,overcast clouds,0,0
280,Kahului,US,2020-05-12 22:00:09,20.89,-156.47,80.6,61,40,20.8,scattered clouds,0,0
281,Atherton,GB,2020-05-12 22:00:22,53.52,-2.49,48.0,77,17,5.01,few clouds,0,0
282,Mandalgovi,MN,2020-05-12 22:00:22,45.76,106.27,51.93,45,2,3.06,clear sky,0,0
283,Raudeberg,NO,2020-05-12 22:00:22,61.99,5.14,35.01,89,97,16.06,light snow,0,0
284,Camopi,GF,2020-05-12 22:00:22,3.17,-52.32,75.16,93,100,3.89,overcast clouds,0,0
285,Tocopilla,CL,2020-05-12 22:00:22,-22.09,-70.2,65.21,61,15,9.19,few clouds,0,0
286,Lasa,IT,2020-05-12 22:00:23,46.62,10.7,48.2,87,75,10.29,broken clouds,0,0
287,Bugsoc,PH,2020-05-12 22:00:23,9.78,124.27,80.6,88,90,3.36,overcast clouds,0,0
288,Pitimbu,BR,2020-05-12 22:00:23,-7.47,-34.81,78.8,88,40,4.7,scattered clouds,0,0
289,Bongandanga,CD,2020-05-12 22:00:23,1.5,21.05,71.85,96,7,2.24,clear sky,0,0
290,San Miguel,SV,2020-05-12 22:00:23,13.48,-88.18,95.0,63,20,6.93,few clouds,0,0
291,Katsuura,JP,2020-05-12 22:00:23,35.13,140.3,69.01,82,81,5.01,broken clouds,0,0
292,Sao Domingos,BR,2020-05-12 22:00:23,-13.4,-46.32,71.04,76,9,5.66,clear sky,0,0
293,San Carlos De Bariloche,AR,2020-05-12 21:59:53,-41.15,-71.31,46.4,70,75,24.16,broken clouds,0,0
294,Tukrah,LY,2020-05-12 22:00:24,32.53,20.58,76.03,29,28,6.64,scattered clouds,0,0
295,Bastia,FR,2020-05-12 22:00:24,42.67,9.33,64.4,82,75,4.7,broken clouds,0,0
296,Fort Saint James,CA,2020-05-12 22:00:24,54.43,-124.25,68.23,23,6,4.59,clear sky,0,0
297,Zilair,RU,2020-05-12 22:00:24,52.23,57.44,43.84,91,0,2.04,clear sky,0,0
298,Talara,PE,2020-05-12 22:00:24,-4.58,-81.27,72.5,80,1,17.13,clear sky,0,0
299,Senanga,ZM,2020-05-12 22:00:25,-16.12,23.27,61.93,41,0,5.64,clear sky,0,0
300,Grand Gaube,MU,2020-05-12 22:00:25,-20.01,57.66,72.0,70,43,5.01,scattered clouds,0,0
301,Krasnovishersk,RU,2020-05-12 22:00:25,60.41,57.08,50.58,91,0,5.7,clear sky,0,0
302,Ancud,CL,2020-05-12 21:58:10,-41.87,-73.82,53.6,81,75,5.82,broken clouds,0,0
303,Saint Pete Beach,US,2020-05-12 21:56:57,27.73,-82.74,89.01,51,1,8.05,clear sky,0,0
304,Mapimi,MX,2020-05-12 22:00:26,25.82,-103.85,91.4,15,20,1.79,few clouds,0,0
305,Onega,RU,2020-05-12 22:00:26,63.91,38.14,33.51,92,100,5.55,overcast clouds,0,0
306,Fomboni,KM,2020-05-12 22:00:27,-12.28,43.74,80.78,77,59,13.51,broken clouds,0,0
307,Tongzi,CN,2020-05-12 22:00:27,28.78,105.09,65.03,87,100,3.15,overcast clouds,0,0
308,Rio Gallegos,AR,2020-05-12 22:00:27,-51.62,-69.22,44.6,45,15,11.41,few clouds,0,0
309,Isangel,VU,2020-05-12 22:00:28,-19.55,169.27,75.02,60,0,10.31,clear sky,0,0
310,Puqi,CN,2020-05-12 22:00:28,29.72,113.88,62.64,61,100,3.65,overcast clouds,0,0
311,Otavi,NA,2020-05-12 22:00:28,-19.65,17.33,60.13,42,22,3.09,few clouds,0,0
312,Mpika,ZM,2020-05-12 22:00:28,-11.83,31.45,59.63,69,61,3.58,broken clouds,0,0
313,Kavaratti,IN,2020-05-12 22:00:29,10.57,72.64,85.42,75,100,6.96,overcast clouds,0,0
314,Bereda,ES,2020-05-12 22:00:29,43.27,-7.54,55.0,100,100,5.99,overcast clouds,0,0
315,Maitum,PH,2020-05-12 22:00:29,6.04,124.5,80.51,74,61,3.13,broken clouds,0,0
316,Alofi,NU,2020-05-12 22:00:29,-19.06,-169.92,82.4,83,20,5.82,few clouds,0,0
317,Brusque,BR,2020-05-12 21:57:12,-27.1,-48.92,72.0,86,100,1.25,overcast clouds,0,0
318,Novoagansk,RU,2020-05-12 22:00:29,61.94,76.66,62.85,67,75,5.26,broken clouds,0,0
319,Oxbow,CA,2020-05-12 22:00:29,49.23,-102.17,52.0,33,100,13.0,overcast clouds,0,0
320,Yulara,AU,2020-05-12 22:00:30,-25.24,130.99,46.4,33,0,6.93,clear sky,0,0
321,Sikonge,TZ,2020-05-12 22:00:30,-5.63,32.77,68.0,82,20,5.82,few clouds,0,0
322,Honiara,SB,2020-05-12 22:00:30,-9.43,159.95,83.86,69,91,2.84,overcast clouds,0,0
323,Sechura,PE,2020-05-12 22:00:30,-5.56,-80.82,78.22,62,6,18.12,clear sky,0,0
324,Alanya,TR,2020-05-12 21:57:11,36.54,32.0,69.67,63,0,3.38,clear sky,0,0
325,Abnub,EG,2020-05-12 21:58:44,27.27,31.15,78.8,29,100,4.7,overcast clouds,0,0
326,Uribia,CO,2020-05-12 22:00:30,11.71,-72.27,91.96,47,35,16.51,scattered clouds,0,0
327,Tura,IN,2020-05-12 22:00:31,25.52,90.22,76.66,36,4,4.29,clear sky,0,0
328,Leshukonskoye,RU,2020-05-12 22:00:31,64.9,45.76,36.25,93,100,10.22,overcast clouds,0,0
329,Dwarka,IN,2020-05-12 22:00:31,22.24,68.97,80.87,89,2,14.99,clear sky,0,0
330,Lagoa,PT,2020-05-12 21:58:05,39.05,-27.98,58.89,72,33,27.09,scattered clouds,0,0
331,Grimshaw,CA,2020-05-12 22:00:31,56.18,-117.6,59.0,22,20,11.41,few clouds,0,0
332,Teguise,ES,2020-05-12 22:00:31,29.06,-13.56,69.8,64,20,12.75,few clouds,0,0
333,Vestmannaeyjar,IS,2020-05-12 22:00:32,63.44,-20.27,42.8,75,75,11.41,broken clouds,0,0
334,Aleksandrov Gay,RU,2020-05-12 22:00:32,50.15,48.57,55.83,72,6,10.09,clear sky,0,0
335,Aksarka,RU,2020-05-12 22:00:32,66.56,67.8,37.8,93,19,1.43,few clouds,0,0
336,Souillac,MU,2020-05-12 21:58:12,-20.52,57.52,73.4,60,40,8.05,scattered clouds,0,0
337,Castro,BR,2020-05-12 22:00:32,-24.79,-50.01,60.46,87,90,3.87,overcast clouds,0,0
338,New Norfolk,AU,2020-05-12 22:00:32,-42.78,147.06,48.0,76,24,3.0,light rain,0,0
339,Porto Novo,BJ,2020-05-12 22:00:32,6.5,2.6,81.81,79,19,6.64,few clouds,0,0
340,Sakaiminato,JP,2020-05-12 22:00:33,35.55,133.23,62.6,63,75,12.75,broken clouds,0,0
341,Nabire,ID,2020-05-12 22:00:33,-3.37,135.48,78.75,87,89,3.8,overcast clouds,0,0
342,Klyuchi,RU,2020-05-12 22:00:33,52.27,79.17,65.23,45,49,4.9,scattered clouds,0,0
343,Qui Nhon,VN,2020-05-12 22:00:06,13.77,109.23,77.14,85,37,5.08,scattered clouds,0,0
344,Agadez,NE,2020-05-12 22:00:33,19.75,10.25,81.14,14,0,2.68,clear sky,0,0
345,Kavieng,PG,2020-05-12 22:00:34,-2.57,150.8,81.45,83,99,16.02,moderate rain,0,0
346,Vila Velha,BR,2020-05-12 22:00:34,-20.33,-40.29,73.99,83,0,5.82,clear sky,0,0
347,Stephenville,US,2020-05-12 22:00:34,32.22,-98.2,78.8,61,75,8.05,broken clouds,0,0
348,Puerto Rondon,CO,2020-05-12 22:00:34,6.28,-71.1,85.69,71,78,5.44,light rain,0,0
349,Kitovo,RU,2020-05-12 22:00:34,56.87,41.28,57.29,96,100,9.93,light rain,0,0
350,Karasburg,NA,2020-05-12 22:00:34,-28.02,18.75,61.61,44,66,9.33,broken clouds,0,0
351,Sultanpur,IN,2020-05-12 22:00:35,26.27,82.07,85.6,28,1,5.37,clear sky,0,0
352,Sobolevo,RU,2020-05-12 22:00:35,54.43,31.9,34.21,89,76,14.32,broken clouds,0,0
353,Changji,CN,2020-05-12 22:00:35,44.02,87.32,71.6,30,69,6.71,broken clouds,0,0
354,Nur,PL,2020-05-12 22:00:35,52.67,22.32,37.99,82,33,8.95,scattered clouds,0,0
355,Orta Nova,IT,2020-05-12 22:00:35,41.33,15.71,62.6,88,0,1.12,clear sky,0,0
356,Luena,AO,2020-05-12 22:00:35,-11.78,19.92,65.17,64,97,3.44,overcast clouds,0,0
357,Viedma,AR,2020-05-12 21:59:38,-40.81,-63.0,55.76,52,21,8.3,few clouds,0,0
358,Sambava,MG,2020-05-12 22:00:35,-14.27,50.17,74.08,88,82,10.51,light rain,0,0
359,Oistins,BB,2020-05-12 21:56:11,13.07,-59.53,82.4,65,40,21.92,scattered clouds,0,0
360,Rabak,SD,2020-05-12 22:00:36,13.18,32.74,92.1,27,70,4.52,light rain,0,0
361,Chapais,CA,2020-05-12 21:57:43,49.78,-74.85,33.8,34,1,10.29,clear sky,0,0
362,Tornio,FI,2020-05-12 22:00:36,65.85,24.15,30.2,92,7,3.36,clear sky,0,0
363,Paso De Los Toros,UY,2020-05-12 22:00:36,-32.82,-56.52,59.0,62,3,4.7,clear sky,0,0
364,Shiyan,CN,2020-05-12 22:00:37,32.65,110.78,61.72,48,98,1.68,overcast clouds,0,0
365,Slave Lake,CA,2020-05-12 22:00:37,55.28,-114.77,57.2,22,20,14.99,few clouds,0,0
366,Deputatskiy,RU,2020-05-12 22:00:37,69.3,139.9,27.27,99,91,4.32,overcast clouds,0,0
367,Atlantic City,US,2020-05-12 21:57:36,39.36,-74.42,60.8,29,75,14.99,broken clouds,0,0
368,Flin Flon,CA,2020-05-12 22:00:38,54.77,-101.86,53.6,16,5,9.17,clear sky,0,0
369,Saint George,US,2020-05-12 21:56:36,37.1,-113.58,84.2,12,1,27.51,clear sky,0,0
370,Padang,ID,2020-05-12 22:00:39,-0.95,100.35,79.54,75,100,5.84,overcast clouds,0,0
371,Kizhinga,RU,2020-05-12 22:00:39,51.85,109.91,49.86,68,99,8.95,overcast clouds,0,0
372,Homer,US,2020-05-12 22:00:39,59.64,-151.55,50.0,66,1,12.75,clear sky,0,0
373,Khudumelapye,BW,2020-05-12 22:00:39,-23.88,24.75,59.23,34,12,4.63,few clouds,0,0
374,Domna,RU,2020-05-12 22:00:39,51.9,113.16,39.2,69,38,2.24,scattered clouds,0,0
375,Nechi,CO,2020-05-12 22:00:40,8.09,-74.78,82.42,91,100,0.54,moderate rain,0,0
376,Mehamn,NO,2020-05-12 22:00:40,71.04,27.85,30.85,91,91,24.92,overcast clouds,0,0
377,Gobabis,NA,2020-05-12 22:00:40,-22.45,18.97,51.8,66,31,11.41,scattered clouds,0,0
378,Cockburn Town,TC,2020-05-12 22:00:05,21.46,-71.14,81.25,78,93,7.99,light rain,0,0
379,Havre-Saint-Pierre,CA,2020-05-12 22:00:40,50.23,-63.6,42.8,60,90,6.93,overcast clouds,0,0
380,Severo-Kurilsk,RU,2020-05-12 22:00:40,50.68,156.12,40.69,71,0,1.54,clear sky,0,0
381,Bilibino,RU,2020-05-12 22:00:41,68.05,166.44,33.49,86,0,0.38,clear sky,0,0
382,Okhotsk,RU,2020-05-12 22:00:41,59.38,143.3,34.81,95,100,30.0,light rain,0,0
383,Jian,CN,2020-05-12 22:00:41,27.12,114.98,66.16,64,95,2.08,overcast clouds,0,0
384,Troitsko-Pechorsk,RU,2020-05-12 22:00:41,62.71,56.2,51.01,97,83,3.87,broken clouds,0,0
385,Chino Valley,US,2020-05-12 21:59:44,34.76,-112.45,80.01,13,1,21.92,clear sky,0,0
386,Kochevo,RU,2020-05-12 22:00:42,59.6,54.31,49.69,96,53,8.1,broken clouds,0,0
387,Lensk,RU,2020-05-12 22:00:42,60.73,114.93,32.16,93,100,6.13,overcast clouds,0,0
388,Dunedin,NZ,2020-05-12 22:00:42,-45.87,170.5,53.01,80,100,3.33,overcast clouds,0,0
389,Charters Towers,AU,2020-05-12 22:00:42,-20.1,146.27,64.18,80,22,8.93,few clouds,0,0
390,Palm Coast,US,2020-05-12 21:57:51,29.59,-81.21,77.0,36,1,10.29,clear sky,0,0
391,Umm Kaddadah,SD,2020-05-12 21:56:59,13.6,26.69,87.17,12,82,12.88,broken clouds,0,0
392,Hovd,MN,2020-05-12 22:00:42,48.01,91.64,53.2,40,67,1.9,broken clouds,0,0
393,Bisho,ZA,2020-05-12 22:00:42,-32.85,27.44,61.57,65,100,6.69,overcast clouds,0,0
394,Rocha,UY,2020-05-12 22:00:43,-34.48,-54.33,49.78,85,4,4.32,clear sky,0,0
395,Tashtyp,RU,2020-05-12 22:00:43,52.79,89.9,51.62,80,0,2.04,clear sky,0,0
396,Kamaishi,JP,2020-05-12 22:00:43,39.27,141.88,62.22,63,0,3.67,clear sky,0,0
397,Seminole,US,2020-05-12 22:00:43,28.71,-81.21,82.4,28,1,13.87,clear sky,0,0
398,Tabuk,PH,2020-05-12 22:00:43,17.42,121.44,76.21,84,25,0.6,scattered clouds,0,0
399,Kidodi,TZ,2020-05-12 22:00:43,-7.6,37.0,70.21,79,52,3.02,broken clouds,0,0
400,Ushtobe,KZ,2020-05-12 22:00:43,45.25,77.98,61.95,56,0,4.83,clear sky,0,0
401,Bom Jardim,BR,2020-05-12 22:00:44,-7.8,-35.59,70.7,95,2,6.78,clear sky,0,0
402,Tecpan,GT,2020-05-12 22:00:44,14.76,-90.99,82.4,54,40,9.17,haze,0,0
403,Najran,SA,2020-05-12 22:00:44,17.49,44.13,82.4,26,0,4.7,clear sky,0,0
404,Havelock,US,2020-05-12 22:00:44,34.88,-76.9,66.2,32,1,6.93,clear sky,0,0
405,Wladyslawowo,PL,2020-05-12 22:00:44,54.79,18.4,46.0,70,91,4.0,light rain,0,0
406,Sur,OM,2020-05-12 22:00:44,22.57,59.53,85.93,67,0,13.22,clear sky,0,0
407,Oromocto,CA,2020-05-12 22:00:45,45.84,-66.48,34.0,96,90,12.75,light snow,0,0
408,Bridgend,GB,2020-05-12 22:00:45,51.51,-3.58,48.2,70,20,8.05,few clouds,0,0
409,La Crosse,US,2020-05-12 21:57:03,43.8,-91.24,60.8,15,1,4.7,clear sky,0,0
410,Myaundzha,RU,2020-05-12 22:00:45,63.05,147.19,31.55,96,85,7.45,overcast clouds,0,0
411,Vanderhoof,CA,2020-05-12 22:00:45,54.02,-124.02,68.18,24,0,4.18,clear sky,0,0
412,Tabou,CI,2020-05-12 22:00:46,4.42,-7.35,79.65,83,92,4.29,overcast clouds,0,0
413,Tezu,IN,2020-05-12 22:00:46,27.92,96.17,70.81,58,21,3.69,few clouds,0,0
414,Ikalamavony,MG,2020-05-12 22:00:46,-21.15,46.58,64.24,85,88,2.1,light rain,0,0
415,Inhambane,MZ,2020-05-12 22:00:46,-23.86,35.38,67.14,70,0,4.83,clear sky,0,0
416,Pristina,XK,2020-05-12 21:57:07,42.67,21.17,55.4,71,38,4.7,scattered clouds,0,0
417,Santiago,CL,2020-05-12 21:56:38,-33.46,-70.65,60.8,54,90,2.24,haze,0,0
418,Suhbaatar,MN,2020-05-12 22:00:47,50.23,106.21,52.54,71,91,3.58,overcast clouds,0,0
419,Danilov,RU,2020-05-12 22:00:47,58.19,40.17,60.8,82,100,8.95,light rain,0,0
420,Ostrovnoy,RU,2020-05-12 21:57:57,68.05,39.51,31.78,93,53,2.91,broken clouds,0,0
421,Grajau,BR,2020-05-12 22:00:47,-5.82,-46.14,77.88,78,100,3.91,overcast clouds,0,0
422,Prince Rupert,CA,2020-05-12 21:59:43,54.32,-130.32,55.4,76,1,5.82,clear sky,0,0
423,Interlaken,US,2020-05-12 22:00:47,36.95,-121.73,66.2,68,20,13.87,few clouds,0,0
424,Sao Lourenco Da Mata,BR,2020-05-12 21:58:34,-8.0,-35.02,82.4,78,40,5.82,scattered clouds,0,0
425,Norrtalje,SE,2020-05-12 22:00:48,59.76,18.7,39.0,86,100,1.01,light rain,0,0
426,Karla,EE,2020-05-12 22:00:48,59.37,24.93,36.0,74,0,5.82,clear sky,0,0
427,General Roca,AR,2020-05-12 22:00:48,-39.03,-67.58,60.8,29,0,6.93,clear sky,0,0
428,Aripuana,BR,2020-05-12 22:00:48,-9.17,-60.63,77.22,88,35,1.03,scattered clouds,0,0
429,Zhoucheng,CN,2020-05-12 22:00:48,35.91,116.31,58.75,61,83,10.2,broken clouds,0,0
430,Kadirli,TR,2020-05-12 22:00:48,37.37,36.1,68.0,84,0,1.88,clear sky,0,0
431,Pemba,MZ,2020-05-12 22:00:48,-12.97,40.52,78.51,82,81,15.37,light rain,0,0
432,Diffa,NE,2020-05-12 22:00:49,13.32,12.61,82.0,13,12,3.85,few clouds,0,0
433,Buraydah,SA,2020-05-12 21:59:05,26.33,43.98,84.2,25,33,6.93,scattered clouds,0,0
434,Usinsk,RU,2020-05-12 21:59:12,65.99,57.53,51.35,80,25,10.29,scattered clouds,0,0
435,Lompoc,US,2020-05-12 21:55:53,34.64,-120.46,68.0,63,20,9.17,few clouds,0,0
436,Mezen,RU,2020-05-12 22:00:49,65.85,44.24,32.38,98,100,12.24,snow,0,0
437,Jumla,NP,2020-05-12 22:00:49,29.27,82.18,48.29,63,50,3.58,scattered clouds,0,0
438,Sinnai,IT,2020-05-12 21:59:43,39.3,9.2,71.6,53,100,19.46,overcast clouds,0,0
439,Moose Factory,CA,2020-05-12 22:00:50,51.26,-80.61,39.2,32,1,13.87,clear sky,0,0
440,Karagay,RU,2020-05-12 22:00:50,58.27,54.94,51.89,92,64,7.47,broken clouds,0,0
441,Paita,PE,2020-05-12 22:00:50,-5.09,-81.11,73.11,77,10,17.85,clear sky,0,0
442,Takoradi,GH,2020-05-12 22:00:50,4.88,-1.76,80.46,84,0,7.7,clear sky,0,0
443,Strezhevoy,RU,2020-05-12 22:00:50,60.73,77.59,62.6,88,40,6.71,thunderstorm,0,0
444,Methven,NZ,2020-05-12 22:00:50,-43.63,171.65,52.0,89,100,3.29,overcast clouds,0,0
445,Bandarbeyla,SO,2020-05-12 22:00:50,9.49,50.81,83.32,83,45,11.92,scattered clouds,0,0
446,Constitucion,CL,2020-05-12 22:00:51,-35.33,-72.42,55.69,64,0,12.33,clear sky,0,0
447,Igrim,RU,2020-05-12 22:00:51,63.19,64.42,58.37,80,99,7.05,overcast clouds,0,0
448,Warri,NG,2020-05-12 22:00:51,5.52,5.75,77.52,92,100,3.04,overcast clouds,0,0
449,Chulumani,BO,2020-05-12 22:00:51,-16.41,-67.53,66.52,77,75,2.59,broken clouds,0,0
450,Vynohradivka,UA,2020-05-12 22:00:51,45.68,28.57,48.2,61,50,19.46,scattered clouds,0,0
451,Breves,BR,2020-05-12 22:00:51,-1.68,-50.48,78.03,92,61,4.41,light rain,0,0
452,Vanavara,RU,2020-05-12 22:00:52,60.34,102.28,32.77,91,24,5.77,few clouds,0,0
453,Decatur,US,2020-05-12 21:58:04,39.84,-88.95,61.0,42,20,8.05,few clouds,0,0
454,Bilma,NE,2020-05-12 22:00:52,18.69,12.92,81.25,14,0,1.41,clear sky,0,0
455,Kimbe,PG,2020-05-12 22:00:52,-5.55,150.14,78.82,87,100,2.35,light rain,0,0
456,Along,IN,2020-05-12 22:00:52,28.17,94.77,63.57,87,74,1.57,broken clouds,0,0
457,Zhenlai,CN,2020-05-12 22:00:52,45.85,123.3,50.11,48,2,6.76,clear sky,0,0
458,Ucluelet,CA,2020-05-12 21:56:05,48.93,-125.55,57.2,82,90,12.75,light intensity shower rain,0,0
459,Emmett,US,2020-05-12 22:00:53,43.87,-116.5,69.01,32,100,10.96,overcast clouds,0,0
460,Saint-Pierre,RE,2020-05-12 22:00:53,-21.34,55.48,68.0,68,53,3.36,broken clouds,0,0
461,Inongo,CD,2020-05-12 22:00:53,-1.95,18.27,72.45,95,98,3.15,overcast clouds,0,0
462,Pinega,RU,2020-05-12 22:00:53,64.7,43.39,32.76,96,100,13.96,light rain,0,0
463,Ila,NO,2020-05-12 22:00:53,63.43,10.37,34.0,89,100,9.04,light snow,0,0
464,Brazzaville,CG,2020-05-12 22:00:53,-4.27,15.28,73.4,94,100,2.24,overcast clouds,0,0
465,Valle De Allende,MX,2020-05-12 22:00:54,26.93,-105.4,84.74,13,0,7.9,clear sky,0,0
466,Terney,RU,2020-05-12 22:00:54,45.05,136.61,47.3,81,93,5.86,overcast clouds,0,0
467,Samfya,ZM,2020-05-12 22:00:54,-11.36,29.56,64.26,74,63,5.93,broken clouds,0,0
468,Hobyo,SO,2020-05-12 22:00:54,5.35,48.53,84.24,81,65,19.53,broken clouds,0,0
469,Aklavik,CA,2020-05-12 22:00:54,68.22,-135.01,30.2,80,90,6.93,overcast clouds,0,0
470,Olinda,BR,2020-05-12 22:00:55,-8.01,-34.86,82.4,78,40,5.82,scattered clouds,0,0
471,Bata,GQ,2020-05-12 22:00:55,1.86,9.77,77.0,100,40,3.36,scattered clouds,0,0
472,Port Lincoln,AU,2020-05-12 22:00:55,-34.73,135.87,54.21,69,24,10.42,few clouds,0,0
473,Pimentel,PE,2020-05-12 22:00:55,-6.84,-79.93,80.6,57,3,18.34,clear sky,0,0
474,Severnyy,RU,2020-05-12 22:00:55,50.68,36.55,46.4,87,75,26.84,light intensity shower rain,0,0
475,Yatou,CN,2020-05-12 22:00:55,37.15,122.38,55.89,57,0,13.71,clear sky,0,0
476,Alberton,CA,2020-05-12 22:00:55,46.82,-64.07,37.99,50,100,16.15,light rain,0,0
477,Elkhart,US,2020-05-12 22:00:56,41.58,-85.83,60.01,33,1,16.11,clear sky,0,0
478,Vardo,NO,2020-05-12 22:00:56,70.37,31.11,32.0,88,0,14.99,clear sky,0,0
479,Mayo,US,2020-05-12 22:00:56,38.89,-76.51,62.01,41,20,10.29,few clouds,0,0
480,Port Hawkesbury,CA,2020-05-12 22:00:56,45.62,-61.35,45.0,93,75,10.29,moderate rain,0,0
481,Coihaique,CL,2020-05-12 22:00:56,-45.58,-72.07,41.0,86,40,3.36,scattered clouds,0,0
482,Pangoa,PE,2020-05-12 22:00:56,-12.12,-73.0,75.09,93,100,2.06,light rain,0,0
483,Baruun-Urt,MN,2020-05-12 22:00:57,46.68,113.28,51.15,44,64,4.32,broken clouds,0,0
484,Guerrero Negro,MX,2020-05-12 22:00:57,27.98,-114.06,71.64,48,0,18.99,clear sky,0,0
485,Salalah,OM,2020-05-12 21:58:42,17.02,54.09,86.0,79,0,4.7,clear sky,0,0
486,Lahij,YE,2020-05-12 22:00:57,13.17,44.58,89.46,36,0,2.46,clear sky,0,0
487,Sorland,NO,2020-05-12 22:00:57,67.67,12.69,33.76,86,100,17.31,light snow,0,0
488,Pacific Grove,US,2020-05-12 21:57:21,36.62,-121.92,68.0,52,75,9.17,broken clouds,0,0
489,Necochea,AR,2020-05-12 22:00:58,-38.55,-58.74,55.0,62,94,4.0,overcast clouds,0,0
490,Manavgat,TR,2020-05-12 22:00:58,36.79,31.44,69.01,88,0,4.7,clear sky,0,0
491,Sao Filipe,CV,2020-05-12 22:00:58,14.9,-24.5,72.63,77,79,12.91,broken clouds,0,0
492,Newport,GB,2020-05-12 21:56:56,51.59,-3.0,52.0,77,67,7.36,broken clouds,0,0
493,Lac Du Bonnet,CA,2020-05-12 22:00:58,50.25,-96.06,54.0,15,0,5.99,clear sky,0,0
494,Codrington,AU,2020-05-12 22:00:58,-38.27,141.97,49.12,71,36,9.15,scattered clouds,0,0
495,Saint-Augustin,CA,2020-05-12 22:00:59,51.23,-58.65,36.16,86,100,21.43,light rain,0,0
496,Fremont,US,2020-05-12 21:56:05,37.55,-121.99,68.0,52,75,13.87,broken clouds,0,0
497,Morondava,MG,2020-05-12 22:00:59,-20.28,44.28,76.21,69,56,2.3,broken clouds,0,0
498,Finote Selam,ET,2020-05-12 22:00:59,10.7,37.27,67.39,39,13,1.88,few clouds,0,0
499,Prata,BR,2020-05-12 21:58:36,-19.31,-48.92,66.22,76,27,2.55,scattered clouds,0,0
500,Rona De Sus,RO,2020-05-12 22:00:59,47.9,24.05,39.2,86,50,2.24,scattered clouds,0,0
501,Nantucket,US,2020-05-12 22:00:59,41.28,-70.1,55.0,58,1,18.34,clear sky,0,0
502,Neuquen,AR,2020-05-12 22:01:00,-38.95,-68.06,60.8,29,0,6.93,clear sky,0,0
503,Lethem,GY,2020-05-12 22:01:00,3.38,-59.8,84.2,66,23,6.26,few clouds,0,0
504,Gallup,US,2020-05-12 22:01:00,35.53,-108.74,75.2,13,1,21.92,clear sky,0,0
505,Grand-Santi,GF,2020-05-12 21:57:58,4.25,-54.38,75.58,96,100,3.4,moderate rain,0,0
506,Varena,LT,2020-05-12 22:01:00,54.22,24.57,34.0,92,7,5.82,clear sky,0,0
507,Kyren,RU,2020-05-12 22:01:00,51.68,102.14,50.18,64,60,1.63,broken clouds,0,0
508,Tigil,RU,2020-05-12 22:01:00,57.8,158.67,34.09,89,100,3.67,overcast clouds,0,0
509,Deskati,GR,2020-05-12 22:01:01,39.92,21.8,69.8,38,8,1.12,clear sky,0,0
510,Kitakata,JP,2020-05-12 22:01:01,37.65,139.87,61.0,93,20,9.17,few clouds,0,0
511,Kuching,MY,2020-05-12 22:01:01,1.55,110.33,75.2,100,40,2.46,scattered clouds,0,0
512,Yacuiba,BO,2020-05-12 22:01:01,-22.04,-63.68,61.81,72,1,1.19,clear sky,0,0
513,Council Bluffs,US,2020-05-12 22:00:58,41.26,-95.86,62.6,25,90,4.7,overcast clouds,0,0
514,Smithers,CA,2020-05-12 21:59:46,54.78,-127.17,68.0,19,5,5.82,clear sky,0,0
515,Nola,IT,2020-05-12 22:01:01,40.92,14.53,61.0,74,16,0.36,few clouds,0,0
516,Grindavik,IS,2020-05-12 22:01:02,63.84,-22.43,39.2,93,75,16.11,shower rain,0,0
517,Mizan Teferi,ET,2020-05-12 22:01:02,6.98,35.58,62.29,91,30,2.04,light rain,0,0
518,Roma,US,2020-05-12 22:00:05,43.21,-75.46,46.4,33,75,21.92,broken clouds,0,0
519,Bonthe,SL,2020-05-12 22:01:02,7.53,-12.51,81.05,82,100,6.06,overcast clouds,0,0
520,Kisangani,CD,2020-05-12 22:01:02,0.52,25.2,73.17,93,73,1.39,broken clouds,0,0
521,Sioux Lookout,CA,2020-05-12 22:00:48,50.1,-91.92,48.2,23,5,6.93,clear sky,0,0
522,Freeport,US,2020-05-12 21:57:52,40.66,-73.58,60.8,15,1,11.41,clear sky,0,0
523,Byron Bay,AU,2020-05-12 22:01:03,-28.65,153.62,57.0,93,40,5.53,scattered clouds,0,0
524,Belmonte,BR,2020-05-12 22:01:03,-15.86,-38.88,73.4,78,40,2.24,scattered clouds,0,0
525,Chuy,UY,2020-05-12 21:58:16,-33.7,-53.46,55.62,81,13,7.07,few clouds,0,0
526,Kigorobya,UG,2020-05-12 22:01:03,1.62,31.31,68.23,90,100,5.73,light rain,0,0
527,Trelew,AR,2020-05-12 22:01:03,-43.25,-65.31,50.38,65,100,17.02,overcast clouds,0,0
528,Tabas,IR,2020-05-12 21:58:34,33.6,56.92,67.66,37,0,12.24,clear sky,0,0
529,Batticaloa,LK,2020-05-12 22:01:03,7.71,81.69,77.88,89,100,2.06,overcast clouds,0,0
530,Balabac,PH,2020-05-12 22:01:04,7.99,117.06,81.7,81,75,3.22,broken clouds,0,0
531,Kiruna,SE,2020-05-12 22:01:04,67.86,20.23,28.4,58,100,8.05,overcast clouds,0,0
532,Lima,PE,2020-05-12 21:57:38,-12.04,-77.03,71.6,73,9,12.75,clear sky,0,0
533,Nemuro,JP,2020-05-12 22:01:04,43.32,145.57,46.53,91,99,11.56,light rain,0,0
534,Dauphin,CA,2020-05-12 22:01:04,51.15,-100.05,55.4,17,1,13.87,clear sky,0,0
535,Yumen,CN,2020-05-12 21:58:05,40.28,97.2,59.67,30,100,12.35,overcast clouds,0,0
536,Lufilufi,WS,2020-05-12 22:01:05,-13.87,-171.6,80.01,88,73,3.0,light rain,0,0
537,Laguna,US,2020-05-12 22:01:05,38.42,-121.42,70.0,43,75,13.87,broken clouds,0,0
538,Burnie,AU,2020-05-12 21:56:17,-41.07,145.92,48.99,84,0,8.01,clear sky,0,0
539,Port Hedland,AU,2020-05-12 22:01:06,-20.32,118.57,69.8,30,0,11.41,clear sky,0,0
540,Scottsbluff,US,2020-05-12 22:00:27,41.87,-103.67,60.8,51,1,23.04,clear sky,0,0
541,Otjimbingwe,NA,2020-05-12 22:01:06,-22.35,16.13,65.52,34,15,2.33,few clouds,0,0
542,Bandarban,BD,2020-05-12 22:01:06,22.2,92.23,74.88,75,0,2.46,clear sky,0,0
543,Ourossogui,SN,2020-05-12 22:01:07,15.61,-13.32,98.6,27,53,2.24,broken clouds,0,0
544,Bathsheba,BB,2020-05-12 22:01:07,13.22,-59.52,82.4,65,40,21.92,scattered clouds,0,0
545,Kysyl-Syr,RU,2020-05-12 22:01:07,63.9,122.76,29.48,97,100,5.06,overcast clouds,0,0
546,Brokopondo,SR,2020-05-12 22:01:07,4.75,-55.17,78.48,88,100,11.1,moderate rain,0,0
547,Buala,SB,2020-05-12 22:01:07,-8.14,159.59,82.15,80,84,8.61,broken clouds,0,0
548,West Wendover,US,2020-05-12 22:01:07,40.74,-114.07,73.4,16,1,14.99,clear sky,0,0
549,Virginia Beach,US,2020-05-12 21:57:52,36.85,-75.98,64.0,36,40,9.17,scattered clouds,0,0
550,Praia Da Vitoria,PT,2020-05-12 22:01:08,38.73,-27.07,57.2,87,40,22.66,scattered clouds,0,0
551,Leningradskiy,RU,2020-05-12 22:01:08,69.38,178.42,31.93,98,100,8.99,overcast clouds,0,0
552,Nanakuli,US,2020-05-12 22:01:08,21.39,-158.15,84.2,54,40,9.17,scattered clouds,0,0
553,Marsh Harbour,BS,2020-05-12 22:01:08,26.54,-77.06,75.0,69,8,20.94,clear sky,0,0
554,Oussouye,SN,2020-05-12 22:01:08,12.48,-16.55,80.6,88,100,4.7,overcast clouds,0,0
555,Kapiri Mposhi,ZM,2020-05-12 22:01:09,-13.97,28.68,57.7,73,49,3.65,scattered clouds,0,0
556,Hofn,IS,2020-05-12 22:01:09,64.25,-15.21,41.77,77,77,8.3,broken clouds,0,0
557,Nyurba,RU,2020-05-12 22:01:09,63.28,118.33,31.24,92,89,4.94,overcast clouds,0,0
558,Vila,PT,2020-05-12 22:01:09,42.03,-8.16,59.0,87,75,5.82,broken clouds,0,0
559,Ust-Ishim,RU,2020-05-12 22:01:09,57.69,71.17,65.19,57,0,4.14,clear sky,0,0
560,Klaksvik,FO,2020-05-12 22:01:09,62.23,-6.59,32.0,84,100,11.41,overcast clouds,0,0
561,Naryan-Mar,RU,2020-05-12 22:01:10,67.67,53.09,34.27,94,84,11.65,broken clouds,0,0
562,Goure,NE,2020-05-12 22:01:10,13.98,10.27,81.9,13,1,4.7,clear sky,0,0
563,Ust-Omchug,RU,2020-05-12 22:01:10,61.15,149.63,34.05,89,100,3.69,overcast clouds,0,0
